[
  {
    "id": "2001",
    "name": "Arizona State University",
    "city": "Tempe",
    "state": "AZ",
    "region": "West",
    "ownership": "Public",
    "url": "https://www.asu.edu",
    "admissionRate": 0.88,
    "satAvg": 1210,
    "avgCost": 17000,
    "medianEarnings": 65000,
    "studentSize": 75000,
    "latitude": 33.4242,
    "longitude": -111.9281,
    "popularMajors": ["Computer Science", "Information Technology", "Business"],
    "summary": "Large public university with strong CS/IT and a sizable South Asian community."
  },
  {
    "id": "2002",
    "name": "University of Texas at Dallas",
    "city": "Richardson",
    "state": "TX",
    "region": "South",
    "ownership": "Public",
    "url": "https://www.utdallas.edu",
    "admissionRate": 0.79,
    "satAvg": 1340,
    "avgCost": 20000,
    "medianEarnings": 75000,
    "studentSize": 31000,
    "latitude": 32.9858,
    "longitude": -96.7501,
    "popularMajors": ["Computer Science", "Data Science", "Business Analytics"],
    "summary": "STEM-focused campus with a large Nepali and Indian student community."
  },
  {
    "id": "2003",
    "name": "University of Texas at Arlington",
    "city": "Arlington",
    "state": "TX",
    "region": "South",
    "ownership": "Public",
    "url": "https://www.uta.edu",
    "admissionRate": 0.93,
    "satAvg": 1120,
    "avgCost": 16500,
    "medianEarnings": 58000,
    "studentSize": 45000,
    "latitude": 32.7299,
    "longitude": -97.1145,
    "popularMajors": ["Computer Science", "Mechanical Engineering", "Business"],
    "summary": "Affordable public option near Dallas with strong engineering programs."
  },
  {
    "id": "2004",
    "name": "University at Buffalo (SUNY)",
    "city": "Buffalo",
    "state": "NY",
    "region": "Northeast",
    "ownership": "Public",
    "url": "https://www.buffalo.edu",
    "admissionRate": 0.70,
    "satAvg": 1280,
    "avgCost": 19500,
    "medianEarnings": 62000,
    "studentSize": 31000,
    "latitude": 43.0008,
    "longitude": -78.789,
    "popularMajors": ["Computer Science", "Electrical Engineering", "Business"],
    "summary": "Popular with Nepali and Indian students; strong engineering and business."
  },
  {
    "id": "2005",
    "name": "Rutgers Universityâ€“New Brunswick",
    "city": "New Brunswick",
    "state": "NJ",
    "region": "Northeast",
    "ownership": "Public",
    "url": "https://www.rutgers.edu",
    "admissionRate": 0.66,
    "satAvg": 1340,
    "avgCost": 24500,
    "medianEarnings": 72000,
    "studentSize": 50000,
    "latitude": 40.5,
    "longitude": -74.447,
    "popularMajors": ["Computer Science", "Data Science", "Finance"],
    "summary": "East Coast public flagship with extensive South Asian student networks."
  },
  {
    "id": "2006",
    "name": "San Jose State University",
    "city": "San Jose",
    "state": "CA",
    "region": "West",
    "ownership": "Public",
    "url": "https://www.sjsu.edu",
    "admissionRate": 0.83,
    "satAvg": 1160,
    "avgCost": 19000,
    "medianEarnings": 78000,
    "studentSize": 35000,
    "latitude": 37.3352,
    "longitude": -121.8811,
    "popularMajors": ["Software Engineering", "Computer Science", "Business"],
    "summary": "Silicon Valley public university with strong CS/SE ties to tech."
  },
  {
    "id": "2007",
    "name": "Northeastern University",
    "city": "Boston",
    "state": "MA",
    "region": "Northeast",
    "ownership": "Private nonprofit",
    "url": "https://www.northeastern.edu",
    "admissionRate": 0.18,
    "satAvg": 1460,
    "avgCost": 36000,
    "medianEarnings": 85000,
    "studentSize": 28000,
    "latitude": 42.3398,
    "longitude": -71.0892,
    "popularMajors": ["Computer Science", "Data Science", "Business"],
    "summary": "Co-op driven private university; popular for CS/DS with strong outcomes."
  },
  {
    "id": "2008",
    "name": "Georgia Institute of Technology",
    "city": "Atlanta",
    "state": "GA",
    "region": "South",
    "ownership": "Public",
    "url": "https://www.gatech.edu",
    "admissionRate": 0.17,
    "satAvg": 1450,
    "avgCost": 24000,
    "medianEarnings": 95000,
    "studentSize": 39000,
    "latitude": 33.7756,
    "longitude": -84.3963,
    "popularMajors": ["Computer Science", "Electrical Engineering", "Mechanical Engineering"],
    "summary": "Top public STEM school with strong South Asian student presence."
  },
  {
    "id": "2009",
    "name": "Purdue University",
    "city": "West Lafayette",
    "state": "IN",
    "region": "Midwest",
    "ownership": "Public",
    "url": "https://www.purdue.edu",
    "admissionRate": 0.53,
    "satAvg": 1310,
    "avgCost": 22500,
    "medianEarnings": 85000,
    "studentSize": 46000,
    "latitude": 40.4237,
    "longitude": -86.9212,
    "popularMajors": ["Computer Science", "Mechanical Engineering", "Industrial Engineering"],
    "summary": "Engineering powerhouse with large international cohorts."
  },
  {
    "id": "2010",
    "name": "Iowa State University",
    "city": "Ames",
    "state": "IA",
    "region": "Midwest",
    "ownership": "Public",
    "url": "https://www.iastate.edu",
    "admissionRate": 0.90,
    "satAvg": 1230,
    "avgCost": 16000,
    "medianEarnings": 64000,
    "studentSize": 31000,
    "latitude": 42.0267,
    "longitude": -93.6465,
    "popularMajors": ["Computer Engineering", "Mechanical Engineering", "Business"],
    "summary": "Affordable Midwest option with solid engineering and welcoming community."
  },
  {
    "id": "2011",
    "name": "University of Florida",
    "city": "Gainesville",
    "state": "FL",
    "region": "South",
    "ownership": "Public",
    "url": "https://www.ufl.edu",
    "admissionRate": 0.30,
    "satAvg": 1390,
    "avgCost": 18500,
    "medianEarnings": 76000,
    "studentSize": 53000,
    "latitude": 29.6516,
    "longitude": -82.3248,
    "popularMajors": ["Computer Science", "Business", "Biology"],
    "summary": "Highly ranked public with strong ROI and active South Asian student groups."
  },
  {
    "id": "2012",
    "name": "North Carolina State University",
    "city": "Raleigh",
    "state": "NC",
    "region": "South",
    "ownership": "Public",
    "url": "https://www.ncsu.edu",
    "admissionRate": 0.47,
    "satAvg": 1340,
    "avgCost": 19000,
    "medianEarnings": 74000,
    "studentSize": 36000,
    "latitude": 35.7847,
    "longitude": -78.6821,
    "popularMajors": ["Computer Science", "Electrical Engineering", "Statistics"],
    "summary": "Research-driven public with great engineering and analytics programs."
  },
  {
    "id": "2013",
    "name": "University of Illinois Urbana-Champaign",
    "city": "Champaign",
    "state": "IL",
    "region": "Midwest",
    "ownership": "Public",
    "url": "https://illinois.edu",
    "admissionRate": 0.45,
    "satAvg": 1410,
    "avgCost": 24000,
    "medianEarnings": 90000,
    "studentSize": 52000,
    "latitude": 40.102,
    "longitude": -88.2272,
    "popularMajors": ["Computer Science", "ECE", "Mechanical Engineering"],
    "summary": "Top-tier engineering and CS programs with strong international presence."
  },
  {
    "id": "2014",
    "name": "University of Colorado Boulder",
    "city": "Boulder",
    "state": "CO",
    "region": "West",
    "ownership": "Public",
    "url": "https://www.colorado.edu",
    "admissionRate": 0.80,
    "satAvg": 1250,
    "avgCost": 21000,
    "medianEarnings": 70000,
    "studentSize": 37000,
    "latitude": 40.01499,
    "longitude": -105.27055,
    "popularMajors": ["Computer Science", "Aerospace Engineering", "Business"],
    "summary": "Popular option with solid CS/engineering and an outdoors-friendly campus."
  },
  {
    "id": "2015",
    "name": "University of Massachusetts Amherst",
    "city": "Amherst",
    "state": "MA",
    "region": "Northeast",
    "ownership": "Public",
    "url": "https://www.umass.edu",
    "admissionRate": 0.64,
    "satAvg": 1300,
    "avgCost": 21000,
    "medianEarnings": 72000,
    "studentSize": 32000,
    "latitude": 42.3868,
    "longitude": -72.5301,
    "popularMajors": ["Computer Science", "Data Science", "Business"],
    "summary": "Well-regarded CS and business with strong Northeast networks."
  },
  {
    "id": "2016",
    "name": "Texas A&M University",
    "city": "College Station",
    "state": "TX",
    "region": "South",
    "ownership": "Public",
    "url": "https://www.tamu.edu",
    "admissionRate": 0.64,
    "satAvg": 1270,
    "avgCost": 20000,
    "medianEarnings": 82000,
    "studentSize": 74000,
    "latitude": 30.6187,
    "longitude": -96.3365,
    "popularMajors": ["Computer Engineering", "Mechanical Engineering", "Business"],
    "summary": "Large Texas flagship with strong engineering and business and active South Asian orgs."
  },
  {
    "id": "2017",
    "name": "University of California, San Diego",
    "city": "La Jolla",
    "state": "CA",
    "region": "West",
    "ownership": "Public",
    "url": "https://www.ucsd.edu",
    "admissionRate": 0.31,
    "satAvg": 1370,
    "avgCost": 23000,
    "medianEarnings": 83000,
    "studentSize": 41000,
    "latitude": 32.8801,
    "longitude": -117.234,
    "popularMajors": ["Computer Science", "Biology", "Data Science"],
    "summary": "UC campus with strong CS/DS and large South Asian student presence."
  },
  {
    "id": "2018",
    "name": "University of California, Irvine",
    "city": "Irvine",
    "state": "CA",
    "region": "West",
    "ownership": "Public",
    "url": "https://www.uci.edu",
    "admissionRate": 0.29,
    "satAvg": 1330,
    "avgCost": 22000,
    "medianEarnings": 80000,
    "studentSize": 36000,
    "latitude": 33.6405,
    "longitude": -117.8443,
    "popularMajors": ["Computer Science", "Software Engineering", "Business"],
    "summary": "Popular UC for CS/SE with active Nepali and Indian student orgs."
  },
  {
    "id": "2019",
    "name": "University of Michigan",
    "city": "Ann Arbor",
    "state": "MI",
    "region": "Midwest",
    "ownership": "Public",
    "url": "https://www.umich.edu",
    "admissionRate": 0.20,
    "satAvg": 1440,
    "avgCost": 26000,
    "medianEarnings": 90000,
    "studentSize": 48000,
    "latitude": 42.278,
    "longitude": -83.7382,
    "popularMajors": ["Computer Science", "Business", "Mechanical Engineering"],
    "summary": "Highly ranked flagship with strong recruiting and international cohorts."
  },
  {
    "id": "2020",
    "name": "University of Maryland, College Park",
    "city": "College Park",
    "state": "MD",
    "region": "South",
    "ownership": "Public",
    "url": "https://www.umd.edu",
    "admissionRate": 0.45,
    "satAvg": 1380,
    "avgCost": 22000,
    "medianEarnings": 82000,
    "studentSize": 41000,
    "latitude": 38.9869,
    "longitude": -76.9426,
    "popularMajors": ["Computer Science", "Information Science", "Business"],
    "summary": "DC-area flagship popular for CS/IS with strong South Asian community."
  },
  {
    "id": "2021",
    "name": "Boston University",
    "city": "Boston",
    "state": "MA",
    "region": "Northeast",
    "ownership": "Private nonprofit",
    "url": "https://www.bu.edu",
    "admissionRate": 0.14,
    "satAvg": 1420,
    "avgCost": 36000,
    "medianEarnings": 80000,
    "studentSize": 35000,
    "latitude": 42.3505,
    "longitude": -71.1054,
    "popularMajors": ["Computer Science", "Business", "Biology"],
    "summary": "Private research university with strong internship pipelines in Boston."
  },
  {
    "id": "2022",
    "name": "New York University",
    "city": "New York",
    "state": "NY",
    "region": "Northeast",
    "ownership": "Private nonprofit",
    "url": "https://www.nyu.edu",
    "admissionRate": 0.13,
    "satAvg": 1450,
    "avgCost": 38000,
    "medianEarnings": 88000,
    "studentSize": 58000,
    "latitude": 40.7295,
    "longitude": -73.9965,
    "popularMajors": ["Computer Science", "Business", "Data Science"],
    "summary": "City campus with strong CS/Business and a large South Asian student base."
  },
  {
    "id": "2023",
    "name": "University of Houston",
    "city": "Houston",
    "state": "TX",
    "region": "South",
    "ownership": "Public",
    "url": "https://www.uh.edu",
    "admissionRate": 0.66,
    "satAvg": 1190,
    "avgCost": 16500,
    "medianEarnings": 65000,
    "studentSize": 47000,
    "latitude": 29.7199,
    "longitude": -95.3422,
    "popularMajors": ["Computer Science", "Information Systems", "Business"],
    "summary": "Affordable urban campus with strong South Asian community and tech/business programs."
  },
  {
    "id": "2024",
    "name": "Michigan State University",
    "city": "East Lansing",
    "state": "MI",
    "region": "Midwest",
    "ownership": "Public",
    "url": "https://www.msu.edu",
    "admissionRate": 0.88,
    "satAvg": 1200,
    "avgCost": 19000,
    "medianEarnings": 62000,
    "studentSize": 50000,
    "latitude": 42.7018,
    "longitude": -84.4822,
    "popularMajors": ["Computer Science", "Business", "Mechanical Engineering"],
    "summary": "Large Midwest campus with welcoming community and solid CS/engineering options."
  },
  {
    "id": "2025",
    "name": "Tennessee State University",
    "city": "Nashville",
    "state": "TN",
    "region": "South",
    "ownership": "Public",
    "url": "https://www.tnstate.edu",
    "admissionRate": 0.53,
    "satAvg": 1050,
    "avgCost": 14000,
    "medianEarnings": 55000,
    "studentSize": 8500,
    "latitude": 36.1659,
    "longitude": -86.7844,
    "popularMajors": ["Business", "Psychology", "Biology", "Engineering Tech"],
    "summary": "Public HBCU in Nashville with welcoming community and solid STEM/business options."
  },
  {
    "id": "2026",
    "name": "Fisk University",
    "city": "Nashville",
    "state": "TN",
    "region": "South",
    "ownership": "Private nonprofit",
    "url": "https://www.fisk.edu",
    "admissionRate": 0.66,
    "satAvg": 1080,
    "avgCost": 17000,
    "medianEarnings": 56000,
    "studentSize": 900,
    "latitude": 36.1659,
    "longitude": -86.7844,
    "popularMajors": ["Biology", "Business", "Political Science", "Psychology"],
    "summary": "Historic HBCU in Nashville with a close-knit campus and growing South Asian interest."
  },
  {
    "id": "2027",
    "name": "University of Texas at Austin",
    "city": "Austin",
    "state": "TX",
    "region": "South",
    "ownership": "Public",
    "url": "https://www.utexas.edu",
    "admissionRate": 0.29,
    "satAvg": 1360,
    "avgCost": 23000,
    "medianEarnings": 88000,
    "studentSize": 51000,
    "latitude": 30.2849,
    "longitude": -97.7341,
    "popularMajors": ["Computer Science", "Business", "Electrical Engineering"],
    "summary": "Top public flagship with strong CS/engineering and a large South Asian student presence."
  },
  {
    "id": "2028",
    "name": "University of California, Berkeley",
    "city": "Berkeley",
    "state": "CA",
    "region": "West",
    "ownership": "Public",
    "url": "https://www.berkeley.edu",
    "admissionRate": 0.14,
    "satAvg": 1450,
    "avgCost": 24000,
    "medianEarnings": 95000,
    "studentSize": 45000,
    "latitude": 37.8715,
    "longitude": -122.273,
    "popularMajors": ["Computer Science", "Data Science", "Electrical Engineering"],
    "summary": "Elite public university with world-class CS/EECS and robust South Asian communities."
  },
  {
    "id": "2029",
    "name": "University of Minnesota Twin Cities",
    "city": "Minneapolis",
    "state": "MN",
    "region": "Midwest",
    "ownership": "Public",
    "url": "https://twin-cities.umn.edu",
    "admissionRate": 0.73,
    "satAvg": 1290,
    "avgCost": 19000,
    "medianEarnings": 70000,
    "studentSize": 52000,
    "latitude": 44.97399,
    "longitude": -93.2277285,
    "popularMajors": ["Computer Science", "Mechanical Engineering", "Business"],
    "summary": "Affordable public flagship with strong engineering and an active South Asian student association."
  },
  {
    "id": "2030",
    "name": "George Mason University",
    "city": "Fairfax",
    "state": "VA",
    "region": "South",
    "ownership": "Public",
    "url": "https://www.gmu.edu",
    "admissionRate": 0.90,
    "satAvg": 1210,
    "avgCost": 17000,
    "medianEarnings": 65000,
    "studentSize": 39000,
    "latitude": 38.834,
    "longitude": -77.311,
    "popularMajors": ["Computer Science", "Information Technology", "Business"],
    "summary": "DC-area public with strong CS/IT and sizable South Asian student community."
  },
  {
    "id": "2031",
    "name": "Drexel University",
    "city": "Philadelphia",
    "state": "PA",
    "region": "Northeast",
    "ownership": "Private nonprofit",
    "url": "https://drexel.edu",
    "admissionRate": 0.83,
    "satAvg": 1290,
    "avgCost": 32000,
    "medianEarnings": 72000,
    "studentSize": 24000,
    "latitude": 39.9566,
    "longitude": -75.1899,
    "popularMajors": ["Computer Science", "Information Systems", "Business"],
    "summary": "Co-op focused private university with strong CS/IS and an urban campus."
  },
  {
    "id": "2032",
    "name": "University of Washington Seattle",
    "city": "Seattle",
    "state": "WA",
    "region": "West",
    "ownership": "Public",
    "url": "https://www.washington.edu",
    "admissionRate": 0.53,
    "satAvg": 1340,
    "avgCost": 22500,
    "medianEarnings": 82000,
    "studentSize": 50000,
    "latitude": 47.6553,
    "longitude": -122.3035,
    "popularMajors": ["Computer Science", "Information Science", "Business"],
    "summary": "Flagship with strong CS/IS and proximity to major tech employers; active South Asian orgs."
  },
  {
    "id": "2033",
    "name": "University of Southern California",
    "city": "Los Angeles",
    "state": "CA",
    "region": "West",
    "ownership": "Private nonprofit",
    "url": "https://www.usc.edu",
    "admissionRate": 0.12,
    "satAvg": 1450,
    "avgCost": 38000,
    "medianEarnings": 95000,
    "studentSize": 49000,
    "latitude": 34.0224,
    "longitude": -118.2851,
    "popularMajors": ["Computer Science", "Business", "Data Science"],
    "summary": "Private research university with strong industry ties and large South Asian student network."
  },
  {
    "id": "2034",
    "name": "University of Cincinnati",
    "city": "Cincinnati",
    "state": "OH",
    "region": "Midwest",
    "ownership": "Public",
    "url": "https://www.uc.edu",
    "admissionRate": 0.76,
    "satAvg": 1220,
    "avgCost": 17500,
    "medianEarnings": 64000,
    "studentSize": 46000,
    "latitude": 39.132,
    "longitude": -84.516,
    "popularMajors": ["Computer Science", "Information Technology", "Mechanical Engineering"],
    "summary": "Affordable urban campus with co-op tradition and growing South Asian community."
  },
  {
    "id": "2035",
    "name": "University of Texas at San Antonio",
    "city": "San Antonio",
    "state": "TX",
    "region": "South",
    "ownership": "Public",
    "url": "https://www.utsa.edu",
    "admissionRate": 0.90,
    "satAvg": 1120,
    "avgCost": 15000,
    "medianEarnings": 60000,
    "studentSize": 34000,
    "latitude": 29.583,
    "longitude": -98.619,
    "popularMajors": ["Computer Science", "Cybersecurity", "Business"],
    "summary": "Affordable Texas public with strong cybersecurity and CS programs; welcoming for South Asian students."
  },
  {
    "id": "2036",
    "name": "Oregon State University",
    "city": "Corvallis",
    "state": "OR",
    "region": "West",
    "ownership": "Public",
    "url": "https://oregonstate.edu",
    "admissionRate": 0.89,
    "satAvg": 1190,
    "avgCost": 17500,
    "medianEarnings": 65000,
    "studentSize": 33000,
    "latitude": 44.5646,
    "longitude": -123.262,
    "popularMajors": ["Computer Science", "Mechanical Engineering", "Business"],
    "summary": "Popular for CS and engineering with growing South Asian student groups."
  },
  {
    "id": "2037",
    "name": "University of North Texas",
    "city": "Denton",
    "state": "TX",
    "region": "South",
    "ownership": "Public",
    "url": "https://www.unt.edu",
    "admissionRate": 0.81,
    "satAvg": 1130,
    "avgCost": 14500,
    "medianEarnings": 58000,
    "studentSize": 42000,
    "latitude": 33.2075,
    "longitude": -97.1528,
    "popularMajors": ["Information Science", "Business", "Computer Science"],
    "summary": "Affordable North Texas option with active South Asian student orgs and solid IT/CS pathways."
  },
  {
    "id": "2038",
    "name": "CUNY Queens College",
    "city": "Queens",
    "state": "NY",
    "region": "Northeast",
    "ownership": "Public",
    "url": "https://www.qc.cuny.edu",
    "admissionRate": 0.53,
    "satAvg": 1250,
    "avgCost": 13000,
    "medianEarnings": 62000,
    "studentSize": 18000,
    "latitude": 40.7365,
    "longitude": -73.8213,
    "popularMajors": ["Computer Science", "Information Systems", "Business"],
    "summary": "Affordable NYC option with a large South Asian community and strong CS/IS programs."
  },
  {
    "id": "2039",
    "name": "Georgia State University",
    "city": "Atlanta",
    "state": "GA",
    "region": "South",
    "ownership": "Public",
    "url": "https://www.gsu.edu",
    "admissionRate": 0.69,
    "satAvg": 1130,
    "avgCost": 16000,
    "medianEarnings": 60000,
    "studentSize": 52000,
    "latitude": 33.7529,
    "longitude": -84.3867,
    "popularMajors": ["Computer Science", "Information Systems", "Business"],
    "summary": "Urban Atlanta campus with a diverse student body and growing South Asian community."
  },
  {
    "id": "2040",
    "name": "Wichita State University",
    "city": "Wichita",
    "state": "KS",
    "region": "Midwest",
    "ownership": "Public",
    "url": "https://www.wichita.edu",
    "admissionRate": 0.91,
    "satAvg": 1140,
    "avgCost": 14000,
    "medianEarnings": 57000,
    "studentSize": 17000,
    "latitude": 37.7194,
    "longitude": -97.2931,
    "popularMajors": ["Computer Science", "Mechanical Engineering", "Business"],
    "summary": "Budget-friendly public with strong engineering/CS and a welcoming international community."
  },
  {
    "id": "2041",
    "name": "California State University, Fresno",
    "city": "Fresno",
    "state": "CA",
    "region": "West",
    "ownership": "Public",
    "url": "https://www.fresnostate.edu",
    "admissionRate": 0.97,
    "satAvg": 1070,
    "avgCost": 12000,
    "medianEarnings": 56000,
    "studentSize": 25000,
    "latitude": 36.8123,
    "longitude": -119.746,
    "popularMajors": ["Computer Science", "Information Systems", "Business"],
    "summary": "Very affordable CSU campus with growing South Asian student presence and practical CS/IS programs."
  },
  {
    "id": "2042",
    "name": "University of Central Florida",
    "city": "Orlando",
    "state": "FL",
    "region": "South",
    "ownership": "Public",
    "url": "https://www.ucf.edu",
    "admissionRate": 0.45,
    "satAvg": 1320,
    "avgCost": 17000,
    "medianEarnings": 70000,
    "studentSize": 71000,
    "latitude": 28.6024,
    "longitude": -81.2001,
    "popularMajors": ["Computer Science", "Information Technology", "Business"],
    "summary": "One of the largest U.S. campuses with active South Asian orgs and strong CS/IT programs."
  },
  {
    "id": "2043",
    "name": "University of South Florida",
    "city": "Tampa",
    "state": "FL",
    "region": "South",
    "ownership": "Public",
    "url": "https://www.usf.edu",
    "admissionRate": 0.44,
    "satAvg": 1240,
    "avgCost": 16000,
    "medianEarnings": 68000,
    "studentSize": 50000,
    "latitude": 28.0587,
    "longitude": -82.4139,
    "popularMajors": ["Computer Science", "Information Systems", "Business"],
    "summary": "Affordable Florida public with strong CS/IS and an active South Asian student community."
  },
  {
    "id": "2044",
    "name": "University of Louisiana at Lafayette",
    "city": "Lafayette",
    "state": "LA",
    "region": "South",
    "ownership": "Public",
    "url": "https://www.louisiana.edu",
    "admissionRate": 0.68,
    "satAvg": 1120,
    "avgCost": 12500,
    "medianEarnings": 58000,
    "studentSize": 19000,
    "latitude": 30.2155,
    "longitude": -92.0198,
    "popularMajors": ["Computer Science", "Information Systems", "Mechanical Engineering"],
    "summary": "Low-cost option with friendly international community and solid CS/IS/engineering offerings."
  }
]
